[{"name":"Ustream","total_money_raised":"$60.1M","description":"San Francisco Office","address1":"410 Townsend","address2":"Suite 400","zip_code":"94107","city":"San Francisco","state_code":"CA","country_code":"USA","latitude":37.392936,"longitude":-122.07948,"location":{"type":"Point","coordinates":[-122.07948,37.392936]}},{"name":"Revision3","total_money_raised":"$9M","description":"HQ","address1":"2415 3rd St","address2":"","zip_code":"94107","city":"San Francisco","state_code":"CA","country_code":"USA","latitude":37.757758,"longitude":-122.388243,"location":{"type":"Point","coordinates":[-122.388243,37.757758]}},{"name":"CastTV","total_money_raised":"$3.1M","description":null,"address1":"374 Brannan St.","address2":null,"zip_code":"94107","city":"San Francisco","state_code":"CA","country_code":"USA","latitude":37.780716,"longitude":-122.393913,"location":{"type":"Point","coordinates":[-122.393913,37.780716]}},{"name":"blinkx","total_money_raised":"$0","description":null,"address1":"1 Market Street","address2":"19th Floor, Spear Tower","zip_code":"94105","city":"San Francisco","state_code":"CA","country_code":"USA","latitude":37.793819,"longitude":-122.395089,"location":{"type":"Point","coordinates":[-122.395089,37.793819]}},{"name":"hi5","total_money_raised":"$52M","description":"","address1":"55 Second Street","address2":"Suite 400","zip_code":"94105","city":"San Francisco","state_code":"CA","country_code":"USA","latitude":37.788668,"longitude":-122.400558,"location":{"type":"Point","coordinates":[-122.400558,37.788668]}},{"name":"Metacafe","total_money_raised":"$50M","description":"","address1":"128 King Street","address2":"3rd Floor","zip_code":"94107","city":"San Francisco","state_code":"CA","country_code":"USA","latitude":37.437328,"longitude":-122.159928,"location":{"type":"Point","coordinates":[-122.159928,37.437328]}},{"name":"IODA","total_money_raised":"$0","description":null,"address1":"539 Bryant Street, Suite 303","address2":null,"zip_code":"94107","city":"San Francisco","state_code":"CA","country_code":"USA","latitude":37.780134,"longitude":-122.396744,"location":{"type":"Point","coordinates":[-122.396744,37.780134]}},{"name":"Kongregate","total_money_raised":"$19M","description":"","address1":"2 Shaw Alley","address2":"4th Floor","zip_code":"94105","city":"San Francisco","state_code":"CA","country_code":"USA","latitude":37.786942,"longitude":-122.401245,"location":{"type":"Point","coordinates":[-122.401245,37.786942]}},{"name":"Mevio","total_money_raised":"$48.9M","description":"","address1":"577 2nd St Suite 203","address2":"","zip_code":"94107","city":"San Francisco","state_code":"CA","country_code":"USA","latitude":37.782263,"longitude":-122.392142,"location":{"type":"Point","coordinates":[-122.392142,37.782263]}},{"name":"Crunchyroll","total_money_raised":"$4.8M","description":"","address1":"","address2":"","zip_code":"94105","city":"San Francisco","state_code":"CA","country_code":"USA","latitude":37.781265,"longitude":-122.393229,"location":{"type":"Point","coordinates":[-122.393229,37.781265]}},{"name":"Rupture","total_money_raised":"$3M","description":"Headquarters","address1":"400 2nd Street","address2":"Suite 350","zip_code":"94107","city":"San Francisco","state_code":"CA","country_code":"USA","latitude":37.783898,"longitude":-122.395234,"location":{"type":"Point","coordinates":[-122.395234,37.783898]}},{"name":"PlayFirst","total_money_raised":"$37.7M","description":"HQ","address1":"160 Spear St","address2":"Suite 1300","zip_code":"94105","city":"San Francisco","state_code":"CA","country_code":"USA","latitude":37.790346,"longitude":-122.40185,"location":{"type":"Point","coordinates":[-122.40185,37.790346]}},{"name":"Kabam","total_money_raised":"$125M","description":"HQ","address1":"795 Folsom Street","address2":"Suite 600","zip_code":"94107","city":"San Francisco","state_code":"CA","country_code":"USA","latitude":37.3944561,"longitude":-122.0785314,"location":{"type":"Point","coordinates":[-122.0785314,37.3944561]}},{"name":"Citizen Sports","total_money_raised":"$10M","description":"","address1":"525 Brannan St","address2":"","zip_code":"94107","city":"San Francisco","state_code":"CA","country_code":"USA","latitude":37.777513,"longitude":-122.397044,"location":{"type":"Point","coordinates":[-122.397044,37.777513]}},{"name":"FantasyBook","total_money_raised":"$0","description":null,"address1":"191 Warwick St","address2":"","zip_code":"94105","city":"Daly City","state_code":"CA","country_code":"USA","latitude":37.652325,"longitude":-122.464349,"location":{"type":"Point","coordinates":[-122.464349,37.652325]}},{"name":"iWin","total_money_raised":"$0","description":"","address1":"45 Fremont Street","address2":"Suite 3100","zip_code":"94105","city":"San Francisco","state_code":"CA","country_code":"USA","latitude":37.781689,"longitude":-122.391061,"location":{"type":"Point","coordinates":[-122.391061,37.781689]}},{"name":"Soundflavor","total_money_raised":"$5.8M","description":null,"address1":"2339 Third Street, 4th Floor","address2":"","zip_code":"94107","city":"San Francisco","state_code":"CA","country_code":"USA","latitude":null,"longitude":null,"location":null},{"name":"MetaCritic","total_money_raised":"$0","description":"","address1":"","address2":"","zip_code":"94105","city":"San Francisco","state_code":"CA","country_code":"USA","latitude":null,"longitude":null,"location":null},{"name":"eBaum's World","total_money_raised":"$0","description":"","address1":"612 Howard St.","address2":"Suite 600","zip_code":"94105","city":"San Francisco","state_code":"CA","country_code":"USA","latitude":37.786393,"longitude":-122.3987745,"location":{"type":"Point","coordinates":[-122.3987745,37.786393]}},{"name":"Scavenja","total_money_raised":"$0","description":"","address1":"539 Bryant St.,","address2":"Suite 402","zip_code":"94107","city":"San Francisco","state_code":"CA","country_code":"USA","latitude":37.780134,"longitude":-122.396744,"location":{"type":"Point","coordinates":[-122.396744,37.780134]}},{"name":"Lexy","total_money_raised":"$1.71M","description":"Corporate Headquarters","address1":"589 Howard Street","address2":"Fifth Floor","zip_code":"94105","city":"San Francisco","state_code":"CA","country_code":"USA","latitude":37.786906,"longitude":-122.397672,"location":{"type":"Point","coordinates":[-122.397672,37.786906]}},{"name":"ngmoco","total_money_raised":"$44.8M","description":"Secret Factory","address1":"185 Berry Street","address2":"Suite 3000","zip_code":"94107","city":"San Francisco","state_code":"CA","country_code":"USA","latitude":37.7705096,"longitude":-122.4015807,"location":{"type":"Point","coordinates":[-122.4015807,37.7705096]}},{"name":"Shattered Reality Interactive","total_money_raised":"$1.1M","description":"Main Office","address1":"490 2nd Street","address2":"Suite 100","zip_code":"94107","city":"San Francisco","state_code":"CA","country_code":"USA","latitude":37.783046,"longitude":-122.394067,"location":{"type":"Point","coordinates":[-122.394067,37.783046]}},{"name":"Shattered Reality Interactive","total_money_raised":"$1.1M","description":"Main Office","address1":"490 2nd Street","address2":"Suite 100","zip_code":"94107","city":"San Francisco","state_code":"CA","country_code":"USA","latitude":37.783046,"longitude":-122.394067,"location":{"type":"Point","coordinates":[-122.394067,37.783046]}},{"name":"Brightstorm","total_money_raised":"$6M","description":"Headquarters","address1":"685 Market St. Street, Suite 270","address2":"","zip_code":"94105","city":"San Francisco","state_code":"CA","country_code":"USA","latitude":37.804619,"longitude":-122.371203,"location":{"type":"Point","coordinates":[-122.371203,37.804619]}},{"name":"Booyah","total_money_raised":"$59.5M","description":"Booyah Inc.","address1":"139 Townsend Street, 3rd Floor","address2":"","zip_code":"94107","city":"San Francisco","state_code":"CA","country_code":"USA","latitude":37.420728,"longitude":-122.2103414,"location":{"type":"Point","coordinates":[-122.2103414,37.420728]}},{"name":"GotGame","total_money_raised":"$1M","description":"GotGame HQ","address1":"1 Bluxome Place","address2":"Suite 204","zip_code":"94107","city":"San Francisco","state_code":"CA","country_code":"USA","latitude":37.77772,"longitude":-122.395785,"location":{"type":"Point","coordinates":[-122.395785,37.77772]}},{"name":"Unity Technologies","total_money_raised":"$17.5M","description":"US Office","address1":"795 Folsom","address2":"","zip_code":"94107","city":"San Francisco","state_code":"CA","country_code":"USA","latitude":55.6924605,"longitude":12.530107,"location":{"type":"Point","coordinates":[12.530107,55.6924605]}},{"name":"NaturalMotion","total_money_raised":"$0","description":"San Francisco","address1":"143 2nd Street","address2":"Fifth Floor","zip_code":"94105","city":"San Francisco","state_code":"CA","country_code":"USA","latitude":37.7875304,"longitude":-122.3989996,"location":{"type":"Point","coordinates":[-122.3989996,37.7875304]}},{"name":"Vevo","total_money_raised":"$0","description":"","address1":"2 Shaw Alley","address2":"5th Floor","zip_code":"94105","city":"San Francisco","state_code":"CA","country_code":"USA","latitude":null,"longitude":null,"location":null},{"name":"Exent","total_money_raised":"$3M","description":"Premium Services","address1":"685 Market Street","address2":"Suite 560","zip_code":"94105","city":"San Francisco","state_code":"CA","country_code":"USA","latitude":37.787646,"longitude":-122.402759,"location":{"type":"Point","coordinates":[-122.402759,37.787646]}}]